{"_id":{"$oid":"5a84924d18db37b9315b32b2"},"name":"49 Social","rating":3.5,"review_count":197,"location":{"address1":"49 Temple Pl","address2":"","address3":"","city":"Boston","zip_code":"02111","country":"US","state":"MA","display_address":["49 Temple Pl","Boston, MA 02111"]},"num_property_violations":15,"property_violations":{"Improper storage trash: com":6,"Improper storage trash: res":3,"Illegal dumping \u003c 1 cubic yd":4,"Site Cleanliness license – VIO":2}}
{"_id":{"$oid":"5a84924d18db37b9315b32b3"},"name":"Al Dente Restaurant","rating":4.0,"review_count":855,"location":{"address1":"109 Salem St","address2":"","address3":"","city":"Boston","zip_code":"02113","country":"US","state":"MA","display_address":["109 Salem St","Boston, MA 02113"]},"num_property_violations":2,"property_violations":{"Improper storage trash: res":2}}
{"_id":{"$oid":"5a84924d18db37b9315b32b4"},"name":"Banyan Bar + Refuge","rating":3.5,"review_count":227,"location":{"address1":"553 Tremont St","address2":"","address3":"","city":"Boston","zip_code":"02116","country":"US","state":"MA","display_address":["553 Tremont St","Boston, MA 02116"]},"num_property_violations":1,"property_violations":{"Improper storage trash: res":1}}
{"_id":{"$oid":"5a84924d18db37b9315b32b5"},"name":"Barrington Coffee Roasting Company","rating":4.0,"review_count":163,"location":{"address1":"346 Congress St","address2":"","address3":"","city":"Boston","zip_code":"02210","country":"US","state":"MA","display_address":["346 Congress St","Boston, MA 02210"]},"num_property_violations":3,"property_violations":{"Unsafe Structure":1,"Failure to Obtain Permit":1,"Periodic Inspections":1}}
{"_id":{"$oid":"5a84924d18db37b9315b32b6"},"name":"Barrington Coffee Roasting Company","rating":4.0,"review_count":163,"location":{"address1":"346 Congress St","address2":"","address3":"","city":"Boston","zip_code":"02210","country":"US","state":"MA","display_address":["346 Congress St","Boston, MA 02210"]},"num_property_violations":3,"property_violations":{"Unsafe Structure":1,"Failure to Obtain Permit":1,"Periodic Inspections":1}}
{"_id":{"$oid":"5a84924d18db37b9315b32b7"},"name":"Bella Luna Restaurant \u0026 The Milky Way Lounge","rating":3.5,"review_count":450,"location":{"address1":"284 Amory St","address2":"","address3":"The Milky Way Lounge","city":"Jamaica Plain","zip_code":"02130","country":"US","state":"MA","display_address":["284 Amory St","The Milky Way Lounge","Jamaica Plain, MA 02130"]},"num_property_violations":1,"property_violations":{"Occupying City prop wo permit":1}}
{"_id":{"$oid":"5a84924d18db37b9315b32b8"},"name":"Prudential Center","rating":3.5,"review_count":170,"location":{"address1":"800 Boylston St","address2":"","address3":"","city":"Boston","zip_code":"02199","country":"US","state":"MA","display_address":["800 Boylston St","Boston, MA 02199"]},"num_property_violations":1,"property_violations":{"Failure clear sidewalk - snow:":1}}
{"_id":{"$oid":"5a84924d18db37b9315b32b9"},"name":"Black Seed Cafe \u0026 Grill","rating":3.5,"review_count":202,"location":{"address1":"131 Tremont St","address2":"","address3":"","city":"Boston","zip_code":"02111","country":"US","state":"MA","display_address":["131 Tremont St","Boston, MA 02111"]},"num_property_violations":26,"property_violations":{"Improper storage trash: res":4,"Improper storage trash: com":8,"Illegal Vending":2,"Occupying City prop wo permit":4,"Testing \u0026 Certification":1,"Unsafe Structure":1,"Periodic Inspections":1,"Overfilling of barrel/dumpster":3,"Inspections":1,"Site Cleanliness license – VIO":1}}
{"_id":{"$oid":"5a84924d18db37b9315b32ba"},"name":"Blue Dragon","rating":3.5,"review_count":431,"location":{"address1":"324 A St","address2":"","address3":"","city":"Boston","zip_code":"02210","country":"US","state":"MA","display_address":["324 A St","Boston, MA 02210"]},"num_property_violations":1,"property_violations":{"Improper storage trash: com":1}}
{"_id":{"$oid":"5a84924d18db37b9315b32bb"},"name":"Boston Common Coffee Co.","rating":3.5,"review_count":342,"location":{"address1":"515 Washington St","address2":"","address3":"","city":"Boston","zip_code":"02111","country":"US","state":"MA","display_address":["515 Washington St","Boston, MA 02111"]},"num_property_violations":1,"property_violations":{"Improper storage trash: com":1}}
{"_id":{"$oid":"5a84924d18db37b9315b32bc"},"name":"Boston Common Coffee Co.","rating":3.5,"review_count":342,"location":{"address1":"515 Washington St","address2":"","address3":"","city":"Boston","zip_code":"02111","country":"US","state":"MA","display_address":["515 Washington St","Boston, MA 02111"]},"num_property_violations":1,"property_violations":{"Improper storage trash: com":1}}
{"_id":{"$oid":"5a84924d18db37b9315b32bd"},"name":"Boston Common Coffee Co.","rating":3.5,"review_count":342,"location":{"address1":"515 Washington St","address2":"","address3":"","city":"Boston","zip_code":"02111","country":"US","state":"MA","display_address":["515 Washington St","Boston, MA 02111"]},"num_property_violations":1,"property_violations":{"Improper storage trash: com":1}}
{"_id":{"$oid":"5a84924d18db37b9315b32be"},"name":"Bostonia Public House","rating":4.0,"review_count":850,"location":{"address1":"131 State St","address2":"","address3":"","city":"Boston","zip_code":"02109","country":"US","state":"MA","display_address":["131 State St","Boston, MA 02109"]},"num_property_violations":6,"property_violations":{"Improper storage trash: com":2,"Overfilling of barrel/dumpster":2,"Improper storage trash: res":1,"Occupying City prop wo permit":1}}
{"_id":{"$oid":"5a84924d18db37b9315b32bf"},"name":"Brassica Kitchen \u0026 Cafe","rating":4.5,"review_count":128,"location":{"address1":"3710 Washington St","address2":"","address3":null,"city":"Jamaica Plain","zip_code":"02130","country":"US","state":"MA","display_address":["3710 Washington St","Jamaica Plain, MA 02130"]},"num_property_violations":1,"property_violations":{"Certificate of Inspection":1}}
{"_id":{"$oid":"5a84924d18db37b9315b32c0"},"name":"Brigham and Women's Faulkner Hospital","rating":3.0,"review_count":41,"location":{"address1":"1153 Centre St","address2":"","address3":"","city":"Jamaica Plain","zip_code":"02130","country":"US","state":"MA","display_address":["1153 Centre St","Jamaica Plain, MA 02130"]},"num_property_violations":3,"property_violations":{"Failure clear sidewalk - snow":2,"Certificate of Occupancy":1}}
{"_id":{"$oid":"5a84924d18db37b9315b32c1"},"name":"Brighton House of Pizza","rating":3.5,"review_count":38,"location":{"address1":"218 Market St","address2":"","address3":"","city":"Brighton","zip_code":"02135","country":"US","state":"MA","display_address":["218 Market St","Brighton, MA 02135"]},"num_property_violations":4,"property_violations":{"Improper storage trash: res":2,"Overfilling of barrel/dumpster":2}}
{"_id":{"$oid":"5a84924d18db37b9315b32c2"},"name":"Broadside Tavern","rating":3.5,"review_count":24,"location":{"address1":"99 Broad St","address2":"","address3":"","city":"Boston","zip_code":"02110","country":"US","state":"MA","display_address":["99 Broad St","Boston, MA 02110"]},"num_property_violations":1,"property_violations":{"Occupying City prop wo permit":1}}
{"_id":{"$oid":"5a84924d18db37b9315b32c3"},"name":"Cafe 26","rating":4.0,"review_count":140,"location":{"address1":"26 Temple Pl","address2":"","address3":"","city":"Boston","zip_code":"02111","country":"US","state":"MA","display_address":["26 Temple Pl","Boston, MA 02111"]},"num_property_violations":3,"property_violations":{"Improper storage trash: com":2,"Improper storage trash: res":1}}
{"_id":{"$oid":"5a84924d18db37b9315b32c4"},"name":"Cafe de Boston - Eatery \u0026 Catering","rating":4.0,"review_count":156,"location":{"address1":"75 Federal St","address2":"","address3":"","city":"Boston","zip_code":"02110","country":"US","state":"MA","display_address":["75 Federal St","Boston, MA 02110"]},"num_property_violations":1,"property_violations":{"Failure clear sidewalk - snow":1}}
{"_id":{"$oid":"5a84924d18db37b9315b32c5"},"name":"West Napoli Cafe","rating":4.0,"review_count":37,"location":{"address1":"1946 Centre St","address2":"","address3":"","city":"West Roxbury","zip_code":"02132","country":"US","state":"MA","display_address":["1946 Centre St","West Roxbury, MA 02132"]},"num_property_violations":1,"property_violations":{"Failure to Obtain Permit":1}}
{"_id":{"$oid":"5a84924d18db37b9315b32c6"},"name":"California Pizza Kitchen","rating":3.0,"review_count":184,"location":{"address1":"800 Boylston St","address2":"Ste 155","address3":"","city":"Boston","zip_code":"02199","country":"US","state":"MA","display_address":["800 Boylston St","Ste 155","Boston, MA 02199"]},"num_property_violations":1,"property_violations":{"Failure clear sidewalk - snow:":1}}
{"_id":{"$oid":"5a84924d18db37b9315b32c7"},"name":"Capitol Coffee House","rating":4.0,"review_count":87,"location":{"address1":"122 Bowdoin St","address2":"","address3":"","city":"Boston","zip_code":"02108","country":"US","state":"MA","display_address":["122 Bowdoin St","Boston, MA 02108"]},"num_property_violations":7,"property_violations":{"Improper storage trash: com":1,"Improper storage trash: res":3,"Failure clear sidewalk - snow":1,"Overgrown Weeds On Property":2}}
{"_id":{"$oid":"5a84924d18db37b9315b32c8"},"name":"Trophy Room","rating":3.5,"review_count":159,"location":{"address1":"26 Chandler St","address2":"","address3":"","city":"Boston","zip_code":"02116","country":"US","state":"MA","display_address":["26 Chandler St","Boston, MA 02116"]},"num_property_violations":1,"property_violations":{"Improper storage trash: res":1}}
{"_id":{"$oid":"5a84924d18db37b9315b32c9"},"name":"China Gourmet Restaurant","rating":3.5,"review_count":10,"location":{"address1":"23 Tyler St","address2":"","address3":"","city":"Boston","zip_code":"02111","country":"US","state":"MA","display_address":["23 Tyler St","Boston, MA 02111"]},"num_property_violations":2,"property_violations":{"Site Cleanliness license – WAR":1,"Improper storage trash: com":1}}
{"_id":{"$oid":"5a84924d18db37b9315b32ca"},"name":"Chipotle Mexican Grill","rating":3.0,"review_count":81,"location":{"address1":"1924 Beacon St","address2":"","address3":"","city":"Brighton","zip_code":"02135","country":"US","state":"MA","display_address":["1924 Beacon St","Brighton, MA 02135"]},"num_property_violations":10,"property_violations":{"Improper storage trash: res":1,"Improper storage trash: com":5,"Overfilling of barrel/dumpster":1,"Overgrown Weeds On Property":2,"Graffiti on building- 1":1}}
{"_id":{"$oid":"5a84924d18db37b9315b32cb"},"name":"Bostonian Jewelers \u0026 Manufacturers","rating":5.0,"review_count":60,"location":{"address1":"333 Washington St","address2":"Ste 710-13","address3":"","city":"Boston","zip_code":"02108","country":"US","state":"MA","display_address":["333 Washington St","Ste 710-13","Boston, MA 02108"]},"num_property_violations":9,"property_violations":{"Improper storage trash: res":1,"Improper storage trash: com":3,"Occupying City prop wo permit":1,"Overfilling of barrel/dumpster":2,"Illegal dumping \u003c 1 cubic yd":1,"Site Cleanliness license – WAR":1}}
{"_id":{"$oid":"5a84924d18db37b9315b32cc"},"name":"Crazy Dough's Pizza","rating":3.5,"review_count":22,"location":{"address1":"800 Boylston St","address2":"","address3":"","city":"Boston","zip_code":"02199","country":"US","state":"MA","display_address":["800 Boylston St","Boston, MA 02199"]},"num_property_violations":1,"property_violations":{"Failure clear sidewalk - snow:":1}}
{"_id":{"$oid":"5a84924d18db37b9315b32cd"},"name":"Crazy Dough's Pizza","rating":3.5,"review_count":22,"location":{"address1":"800 Boylston St","address2":"","address3":"","city":"Boston","zip_code":"02199","country":"US","state":"MA","display_address":["800 Boylston St","Boston, MA 02199"]},"num_property_violations":1,"property_violations":{"Failure clear sidewalk - snow:":1}}
{"_id":{"$oid":"5a84924d18db37b9315b32ce"},"name":"Crazy Dough's Pizza","rating":3.5,"review_count":22,"location":{"address1":"800 Boylston St","address2":"","address3":"","city":"Boston","zip_code":"02199","country":"US","state":"MA","display_address":["800 Boylston St","Boston, MA 02199"]},"num_property_violations":1,"property_violations":{"Failure clear sidewalk - snow:":1}}
{"_id":{"$oid":"5a84924d18db37b9315b32cf"},"name":"Douzo","rating":4.0,"review_count":914,"location":{"address1":"131 Dartmouth St","address2":null,"address3":"","city":"Boston","zip_code":"02116","country":"US","state":"MA","display_address":["131 Dartmouth St","Boston, MA 02116"]},"num_property_violations":14,"property_violations":{"Improper storage trash: res":10,"Illegal dumping \u003c 1 cubic yd":3,"Occupying City prop wo permit":1}}
{"_id":{"$oid":"5a84924d18db37b9315b32d0"},"name":"Eataly Boston","rating":3.5,"review_count":581,"location":{"address1":"800 Boylston St","address2":"","address3":null,"city":"Boston","zip_code":"02199","country":"US","state":"MA","display_address":["800 Boylston St","Boston, MA 02199"]},"num_property_violations":1,"property_violations":{"Failure clear sidewalk - snow:":1}}
{"_id":{"$oid":"5a84924d18db37b9315b32d1"},"name":"Ernesto's","rating":4.0,"review_count":637,"location":{"address1":"69 Salem St","address2":null,"address3":"","city":"Boston","zip_code":"02113","country":"US","state":"MA","display_address":["69 Salem St","Boston, MA 02113"]},"num_property_violations":1,"property_violations":{"Improper storage trash: res":1}}
{"_id":{"$oid":"5a84924d18db37b9315b32d2"},"name":"Fenmore Grill","rating":2.5,"review_count":67,"location":{"address1":"645 Beacon St","address2":"","address3":"","city":"Boston","zip_code":"02215","country":"US","state":"MA","display_address":["645 Beacon St","Boston, MA 02215"]},"num_property_violations":2,"property_violations":{"Improper storage trash: com":2}}
{"_id":{"$oid":"5a84924d18db37b9315b32d3"},"name":"Finagle A Bagel","rating":3.5,"review_count":127,"location":{"address1":"535 Boylston St","address2":"","address3":"","city":"Boston","zip_code":"02116","country":"US","state":"MA","display_address":["535 Boylston St","Boston, MA 02116"]},"num_property_violations":93,"property_violations":{"Improper storage trash: com":22,"Overfilling of barrel/dumpster":67,"Improper storage trash: res":3,"Site Cleanliness license – VIO":1}}
{"_id":{"$oid":"5a84924d18db37b9315b32d4"},"name":"Finagle A Bagel","rating":3.5,"review_count":127,"location":{"address1":"535 Boylston St","address2":"","address3":"","city":"Boston","zip_code":"02116","country":"US","state":"MA","display_address":["535 Boylston St","Boston, MA 02116"]},"num_property_violations":93,"property_violations":{"Improper storage trash: com":22,"Overfilling of barrel/dumpster":67,"Improper storage trash: res":3,"Site Cleanliness license – VIO":1}}
{"_id":{"$oid":"5a84924d18db37b9315b32d5"},"name":"Fin's Sushi and Grill","rating":3.5,"review_count":329,"location":{"address1":"636 Beacon St","address2":"","address3":"","city":"Boston","zip_code":"02215","country":"US","state":"MA","display_address":["636 Beacon St","Boston, MA 02215"]},"num_property_violations":1,"property_violations":{"Improper storage trash: com":1}}
{"_id":{"$oid":"5a84924d18db37b9315b32d6"},"name":"Fisher College","rating":3.0,"review_count":2,"location":{"address1":"118 Beacon St","address2":"","address3":"","city":"Boston","zip_code":"02116","country":"US","state":"MA","display_address":["118 Beacon St","Boston, MA 02116"]},"num_property_violations":6,"property_violations":{"Overfilling of barrel/dumpster":3,"Improper storage trash: com":1,"Illegal dumping \u003c 1 cubic yd":1,"Improper storage trash: res":1}}
{"_id":{"$oid":"5a84924d18db37b9315b32d7"},"name":"Freshii","rating":3.5,"review_count":139,"location":{"address1":"100 High St","address2":"Ste 100","address3":"","city":"Boston","zip_code":"02110","country":"US","state":"MA","display_address":["100 High St","Ste 100","Boston, MA 02110"]},"num_property_violations":1,"property_violations":{"Improper storage trash: com":1}}
{"_id":{"$oid":"5a84924d18db37b9315b32d8"},"name":"Gene's Chinese Flatbread Cafe","rating":4.0,"review_count":250,"location":{"address1":"86 Bedford St","address2":"","address3":"","city":"Boston","zip_code":"02111","country":"US","state":"MA","display_address":["86 Bedford St","Boston, MA 02111"]},"num_property_violations":3,"property_violations":{"Failure to Obtain Permit":1,"Maintenance of Exterior":1,"Improper storage trash: com":1}}
{"_id":{"$oid":"5a84924d18db37b9315b32d9"},"name":"Grasshopper Sweets and Creamery","rating":3.5,"review_count":3,"location":{"address1":"1 Faneuil Hall Sq","address2":"","address3":"","city":"Boston","zip_code":"02109","country":"US","state":"MA","display_address":["1 Faneuil Hall Sq","Boston, MA 02109"]},"num_property_violations":2,"property_violations":{"Failure clear sidewalk - snow":1,"Graffiti on building- 1":1}}
{"_id":{"$oid":"5a84924d18db37b9315b32da"},"name":"Hojoko Boston","rating":3.5,"review_count":248,"location":{"address1":"1271 Boylston St","address2":"","address3":"","city":"Boston","zip_code":"02215","country":"US","state":"MA","display_address":["1271 Boylston St","Boston, MA 02215"]},"num_property_violations":4,"property_violations":{"Failure clear sidewalk - snow":4}}
{"_id":{"$oid":"5a84924d18db37b9315b32db"},"name":"Invi Restaurant","rating":4.5,"review_count":3,"location":{"address1":"765 Morton St","address2":null,"address3":null,"city":"Mattapan","zip_code":"02126","country":"US","state":"MA","display_address":["765 Morton St","Mattapan, MA 02126"]},"num_property_violations":38,"property_violations":{"Improper storage trash: com":18,"Overfilling of barrel/dumpster":1,"Unsafe Structure":1,"illegal parking prop owner 2":2,"Overgrown Weeds On Property":11,"Unsafe and Dangerous":1,"Disconnecting Means Service":1,"Illegal dumping 5+ cubic yd":1,"Improper storage trash: res":1,"Illegal dumping 1-5 cubic yd．:":1}}
{"_id":{"$oid":"5a84924d18db37b9315b32dc"},"name":"Irashai Sushi and Teriyaki","rating":4.0,"review_count":369,"location":{"address1":"8 Kneeland St","address2":"","address3":"","city":"Boston","zip_code":"02111","country":"US","state":"MA","display_address":["8 Kneeland St","Boston, MA 02111"]},"num_property_violations":1,"property_violations":{"Improper storage trash: com":1}}
{"_id":{"$oid":"5a84924d18db37b9315b32dd"},"name":"Jm Curley","rating":4.0,"review_count":673,"location":{"address1":"21 Temple Pl","address2":null,"address3":"","city":"Boston","zip_code":"02111","country":"US","state":"MA","display_address":["21 Temple Pl","Boston, MA 02111"]},"num_property_violations":12,"property_violations":{"Improper storage trash: res":6,"Improper storage trash: com":3,"Certificate of Occupancy":1,"Failed to comply w PRMT terms":1,"Maintenance":1}}
{"_id":{"$oid":"5a84924d18db37b9315b32de"},"name":"JUGOS","rating":4.5,"review_count":256,"location":{"address1":"145 Dartmouth St","address2":null,"address3":"","city":"Boston","zip_code":"02116","country":"US","state":"MA","display_address":["145 Dartmouth St","Boston, MA 02116"]},"num_property_violations":1,"property_violations":{"Failure clear sidewalk - snow":1}}
{"_id":{"$oid":"5a84924d18db37b9315b32df"},"name":"JUGOS","rating":4.5,"review_count":256,"location":{"address1":"145 Dartmouth St","address2":null,"address3":"","city":"Boston","zip_code":"02116","country":"US","state":"MA","display_address":["145 Dartmouth St","Boston, MA 02116"]},"num_property_violations":1,"property_violations":{"Failure clear sidewalk - snow":1}}
{"_id":{"$oid":"5a84924d18db37b9315b32e0"},"name":"Kaju Tofu House","rating":4.0,"review_count":26,"location":{"address1":"636 Beacon St","address2":"","address3":null,"city":"Boston","zip_code":"02215","country":"US","state":"MA","display_address":["636 Beacon St","Boston, MA 02215"]},"num_property_violations":1,"property_violations":{"Improper storage trash: com":1}}
{"_id":{"$oid":"5a84924d18db37b9315b32e1"},"name":"L'osteria","rating":3.5,"review_count":249,"location":{"address1":"104 Salem St","address2":"","address3":"","city":"Boston","zip_code":"02113","country":"US","state":"MA","display_address":["104 Salem St","Boston, MA 02113"]},"num_property_violations":2,"property_violations":{"Improper storage trash: res":1,"Improper storage trash: com":1}}
{"_id":{"$oid":"5a84924d18db37b9315b32e2"},"name":"Mario's Sub \u0026 Salads","rating":3.5,"review_count":6,"location":{"address1":"28 Warren St","address2":null,"address3":null,"city":"Roxbury","zip_code":"02119","country":"US","state":"MA","display_address":["28 Warren St","Roxbury, MA 02119"]},"num_property_violations":1,"property_violations":{"Inspections":1}}
{"_id":{"$oid":"5a84924d18db37b9315b32e3"},"name":"Partners Healthcare","rating":1.5,"review_count":3,"location":{"address1":"55 Fruit St","address2":"","address3":"","city":"Boston","zip_code":"02114","country":"US","state":"MA","display_address":["55 Fruit St","Boston, MA 02114"]},"num_property_violations":2,"property_violations":{"Illegal dumping \u003c 1 cubic yd":1,"Improper storage trash: com":1}}
{"_id":{"$oid":"5a84924d18db37b9315b32e4"},"name":"Max Brenner","rating":3.0,"review_count":1245,"location":{"address1":"745 Boylston St","address2":"","address3":"","city":"Boston","zip_code":"02116","country":"US","state":"MA","display_address":["745 Boylston St","Boston, MA 02116"]},"num_property_violations":108,"property_violations":{"Improper storage trash: com":30,"Overfilling of barrel/dumpster":68,"Improper storage trash: res":2,"Site Cleanliness license – WAR":3,"Illegal dumping \u003c 1 cubic yd":1,"Shopping Cart - 2":3,"Site Cleanliness license – VIO":1}}
{"_id":{"$oid":"5a84924d18db37b9315b32e5"},"name":"Mija Cantina \u0026 Tequila Bar","rating":2.5,"review_count":416,"location":{"address1":"1 Faneuil Hall Sq","address2":"","address3":"","city":"Boston","zip_code":"02109","country":"US","state":"MA","display_address":["1 Faneuil Hall Sq","Boston, MA 02109"]},"num_property_violations":2,"property_violations":{"Failure clear sidewalk - snow":1,"Graffiti on building- 1":1}}
{"_id":{"$oid":"5a84924d18db37b9315b32e6"},"name":"Mike's Fitness","rating":3.5,"review_count":78,"location":{"address1":"284 Amory St","address2":"","address3":"","city":"Jamaica Plain","zip_code":"02130","country":"US","state":"MA","display_address":["284 Amory St","Jamaica Plain, MA 02130"]},"num_property_violations":1,"property_violations":{"Occupying City prop wo permit":1}}
{"_id":{"$oid":"5a84924d18db37b9315b32e7"},"name":"New Shanghai","rating":3.0,"review_count":97,"location":{"address1":"21 Hudson St","address2":null,"address3":"","city":"Boston","zip_code":"02111","country":"US","state":"MA","display_address":["21 Hudson St","Boston, MA 02111"]},"num_property_violations":14,"property_violations":{"Failure to secure a Re-Inspect":1,"Improper storage trash: com":10,"Improper storage trash: res":2,"Failure clean sidewalk com":1}}
{"_id":{"$oid":"5a84924d18db37b9315b32e8"},"name":"Num Pang Kitchen","rating":4.0,"review_count":79,"location":{"address1":"800 Boylston St","address2":"","address3":null,"city":"Boston","zip_code":"02199","country":"US","state":"MA","display_address":["800 Boylston St","Boston, MA 02199"]},"num_property_violations":1,"property_violations":{"Failure clear sidewalk - snow:":1}}
{"_id":{"$oid":"5a84924d18db37b9315b32e9"},"name":"Our House East","rating":2.0,"review_count":84,"location":{"address1":"52 Gainsborough St","address2":"","address3":"","city":"Boston","zip_code":"02115","country":"US","state":"MA","display_address":["52 Gainsborough St","Boston, MA 02115"]},"num_property_violations":18,"property_violations":{"Improper storage trash: res":9,"Improper storage trash: com":1,"Overfilling of barrel/dumpster":3,"Periodic Inspections":1,"Failure to Obtain Permit":1,"Illegal dumping 1-5 cubic yd．:":2,"Occupying City prop wo permit":1}}
{"_id":{"$oid":"5a84924d18db37b9315b32ea"},"name":"Pagliucas","rating":3.0,"review_count":257,"location":{"address1":"14 Parmenter St","address2":"","address3":"","city":"Boston","zip_code":"02113","country":"US","state":"MA","display_address":["14 Parmenter St","Boston, MA 02113"]},"num_property_violations":3,"property_violations":{"Improper storage trash: res":1,"Improper storage trash: com":1,"Overfilling of barrel/dumpster":1}}
{"_id":{"$oid":"5a84924d18db37b9315b32eb"},"name":"Parla","rating":4.0,"review_count":195,"location":{"address1":"230 Hanover St","address2":null,"address3":"","city":"Boston","zip_code":"02113","country":"US","state":"MA","display_address":["230 Hanover St","Boston, MA 02113"]},"num_property_violations":67,"property_violations":{"Improper storage trash: res":43,"Illegal dumping \u003c 1 cubic yd":3,"Improper storage trash: com":11,"Occupying City prop wo permit":5,"Overfilling of barrel/dumpster":5}}
{"_id":{"$oid":"5a84924d18db37b9315b32ec"},"name":"Peet's Coffee \u0026 Tea","rating":3.5,"review_count":12,"location":{"address1":"129 Tremont St","address2":"","address3":"","city":"Boston","zip_code":"02108","country":"US","state":"MA","display_address":["129 Tremont St","Boston, MA 02108"]},"num_property_violations":11,"property_violations":{"Improper storage trash: com":5,"Overfilling of barrel/dumpster":1,"Illegal dumping \u003c 1 cubic yd":2,"Application for Permit":1,"Illegal Vending":1,"Unsafe Structure":1}}
{"_id":{"$oid":"5a84924d18db37b9315b32ed"},"name":"Peet's Coffee \u0026 Tea","rating":3.5,"review_count":12,"location":{"address1":"129 Tremont St","address2":"","address3":"","city":"Boston","zip_code":"02108","country":"US","state":"MA","display_address":["129 Tremont St","Boston, MA 02108"]},"num_property_violations":11,"property_violations":{"Improper storage trash: com":5,"Overfilling of barrel/dumpster":1,"Illegal dumping \u003c 1 cubic yd":2,"Application for Permit":1,"Illegal Vending":1,"Unsafe Structure":1}}
{"_id":{"$oid":"5a84924d18db37b9315b32ee"},"name":"Peet's Coffee \u0026 Tea","rating":3.5,"review_count":12,"location":{"address1":"129 Tremont St","address2":"","address3":"","city":"Boston","zip_code":"02108","country":"US","state":"MA","display_address":["129 Tremont St","Boston, MA 02108"]},"num_property_violations":11,"property_violations":{"Improper storage trash: com":5,"Overfilling of barrel/dumpster":1,"Illegal dumping \u003c 1 cubic yd":2,"Application for Permit":1,"Illegal Vending":1,"Unsafe Structure":1}}
{"_id":{"$oid":"5a84924d18db37b9315b32ef"},"name":"Peet's Coffee \u0026 Tea","rating":3.5,"review_count":12,"location":{"address1":"129 Tremont St","address2":"","address3":"","city":"Boston","zip_code":"02108","country":"US","state":"MA","display_address":["129 Tremont St","Boston, MA 02108"]},"num_property_violations":11,"property_violations":{"Improper storage trash: com":5,"Overfilling of barrel/dumpster":1,"Illegal dumping \u003c 1 cubic yd":2,"Application for Permit":1,"Illegal Vending":1,"Unsafe Structure":1}}
{"_id":{"$oid":"5a84924d18db37b9315b32f0"},"name":"Peet's Coffee \u0026 Tea","rating":3.5,"review_count":12,"location":{"address1":"129 Tremont St","address2":"","address3":"","city":"Boston","zip_code":"02108","country":"US","state":"MA","display_address":["129 Tremont St","Boston, MA 02108"]},"num_property_violations":11,"property_violations":{"Improper storage trash: com":5,"Overfilling of barrel/dumpster":1,"Illegal dumping \u003c 1 cubic yd":2,"Application for Permit":1,"Illegal Vending":1,"Unsafe Structure":1}}
{"_id":{"$oid":"5a84924d18db37b9315b32f1"},"name":"Peking House","rating":3.0,"review_count":6,"location":{"address1":"160 Dudley St","address2":"","address3":"","city":"Roxbury","zip_code":"02119","country":"US","state":"MA","display_address":["160 Dudley St","Roxbury, MA 02119"]},"num_property_violations":1,"property_violations":{"Failure clear sidewalk - snow":1}}
{"_id":{"$oid":"5a84924d18db37b9315b32f2"},"name":"Piadina Cafe \u0026 Coffee Bar","rating":3.5,"review_count":50,"location":{"address1":"75 State St","address2":"","address3":"","city":"Boston","zip_code":"02109","country":"US","state":"MA","display_address":["75 State St","Boston, MA 02109"]},"num_property_violations":2,"property_violations":{"Failure clear sidewalk - snow:":1,"Illegal dumping \u003c 1 cubic yd":1}}
{"_id":{"$oid":"5a84924d18db37b9315b32f3"},"name":"Popeyes","rating":1.0,"review_count":1,"location":{"address1":"645 Beacon St","address2":null,"address3":null,"city":"Boston","zip_code":"02215","country":"US","state":"MA","display_address":["645 Beacon St","Boston, MA 02215"]},"num_property_violations":2,"property_violations":{"Improper storage trash: com":2}}
{"_id":{"$oid":"5a84924d18db37b9315b32f4"},"name":"Popeyes","rating":1.0,"review_count":1,"location":{"address1":"645 Beacon St","address2":null,"address3":null,"city":"Boston","zip_code":"02215","country":"US","state":"MA","display_address":["645 Beacon St","Boston, MA 02215"]},"num_property_violations":2,"property_violations":{"Improper storage trash: com":2}}
{"_id":{"$oid":"5a84924d18db37b9315b32f5"},"name":"Popeyes","rating":1.0,"review_count":1,"location":{"address1":"645 Beacon St","address2":null,"address3":null,"city":"Boston","zip_code":"02215","country":"US","state":"MA","display_address":["645 Beacon St","Boston, MA 02215"]},"num_property_violations":2,"property_violations":{"Improper storage trash: com":2}}
{"_id":{"$oid":"5a84924d18db37b9315b32f6"},"name":"River Street Grill","rating":3.5,"review_count":31,"location":{"address1":"73 River St","address2":"","address3":"","city":"Mattapan","zip_code":"02126","country":"US","state":"MA","display_address":["73 River St","Mattapan, MA 02126"]},"num_property_violations":1,"property_violations":{"Failure clear sidewalk - snow":1}}
{"_id":{"$oid":"5a84924d18db37b9315b32f7"},"name":"Roche Bros","rating":3.5,"review_count":74,"location":{"address1":"1800 Centre St","address2":"","address3":"","city":"West Roxbury","zip_code":"02132","country":"US","state":"MA","display_address":["1800 Centre St","West Roxbury, MA 02132"]},"num_property_violations":1,"property_violations":{"Electrical Work w/out a Permit":1}}
{"_id":{"$oid":"5a84924d18db37b9315b32f8"},"name":"Serafina","rating":3.5,"review_count":98,"location":{"address1":"10 High St","address2":"","address3":"","city":"Boston","zip_code":"02110","country":"US","state":"MA","display_address":["10 High St","Boston, MA 02110"]},"num_property_violations":3,"property_violations":{"Improper storage trash: com":1,"Occupying City prop wo permit":1,"Illegal Vending":1}}
{"_id":{"$oid":"5a84924d18db37b9315b32f9"},"name":"Shanti Restaurant - Roslindale","rating":4.0,"review_count":107,"location":{"address1":"4197 Washington St","address2":null,"address3":"","city":"Roslindale","zip_code":"02131","country":"US","state":"MA","display_address":["4197 Washington St","Roslindale, MA 02131"]},"num_property_violations":1,"property_violations":{"Site Cleanliness license – VIO":1}}
{"_id":{"$oid":"5a84924d18db37b9315b32fa"},"name":"Spicy World","rating":2.5,"review_count":73,"location":{"address1":"7 Beach St","address2":null,"address3":"","city":"Boston","zip_code":"02111","country":"US","state":"MA","display_address":["7 Beach St","Boston, MA 02111"]},"num_property_violations":13,"property_violations":{"Overfilling of barrel/dumpster":6,"Improper storage trash: res":4,"Improper storage trash: com":1,"Site Cleanliness license – WAR":1,"Site Cleanliness license – VIO":1}}
{"_id":{"$oid":"5a84924d18db37b9315b32fb"},"name":"Tufts Medical Center","rating":2.5,"review_count":122,"location":{"address1":"800 Washington St","address2":"","address3":"","city":"Boston","zip_code":"02111","country":"US","state":"MA","display_address":["800 Washington St","Boston, MA 02111"]},"num_property_violations":4,"property_violations":{"Improper storage trash: res":1,"Overgrown Weeds On Property":2,"Illegal dumping \u003c 1 cubic yd":1}}
{"_id":{"$oid":"5a84924d18db37b9315b32fc"},"name":"Barrington Coffee Roasting Company","rating":4.0,"review_count":163,"location":{"address1":"346 Congress St","address2":"","address3":"","city":"Boston","zip_code":"02210","country":"US","state":"MA","display_address":["346 Congress St","Boston, MA 02210"]},"num_property_violations":3,"property_violations":{"Unsafe Structure":1,"Failure to Obtain Permit":1,"Periodic Inspections":1}}
{"_id":{"$oid":"5a84924d18db37b9315b32fd"},"name":"Superior Diamond Setting","rating":5.0,"review_count":25,"location":{"address1":"333 Washington St","address2":"Ste 339","address3":"","city":"Boston","zip_code":"02108","country":"US","state":"MA","display_address":["333 Washington St","Ste 339","Boston, MA 02108"]},"num_property_violations":9,"property_violations":{"Improper storage trash: res":1,"Improper storage trash: com":3,"Occupying City prop wo permit":1,"Overfilling of barrel/dumpster":2,"Illegal dumping \u003c 1 cubic yd":1,"Site Cleanliness license – WAR":1}}
{"_id":{"$oid":"5a84924d18db37b9315b32fe"},"name":"Boston Common Coffee Co.","rating":3.5,"review_count":342,"location":{"address1":"515 Washington St","address2":"","address3":"","city":"Boston","zip_code":"02111","country":"US","state":"MA","display_address":["515 Washington St","Boston, MA 02111"]},"num_property_violations":1,"property_violations":{"Improper storage trash: com":1}}
{"_id":{"$oid":"5a84924d18db37b9315b32ff"},"name":"Boston Common Coffee Co.","rating":3.5,"review_count":342,"location":{"address1":"515 Washington St","address2":"","address3":"","city":"Boston","zip_code":"02111","country":"US","state":"MA","display_address":["515 Washington St","Boston, MA 02111"]},"num_property_violations":1,"property_violations":{"Improper storage trash: com":1}}
{"_id":{"$oid":"5a84924d18db37b9315b3300"},"name":"Freshii","rating":3.5,"review_count":139,"location":{"address1":"100 High St","address2":"Ste 100","address3":"","city":"Boston","zip_code":"02110","country":"US","state":"MA","display_address":["100 High St","Ste 100","Boston, MA 02110"]},"num_property_violations":1,"property_violations":{"Improper storage trash: com":1}}
{"_id":{"$oid":"5a84924d18db37b9315b3301"},"name":"Suffolk University Law School","rating":4.0,"review_count":1,"location":{"address1":"120 Tremont St","address2":"","address3":"","city":"Boston","zip_code":"02108","country":"US","state":"MA","display_address":["120 Tremont St","Boston, MA 02108"]},"num_property_violations":1,"property_violations":{"Removal snow non-res property":1}}
{"_id":{"$oid":"5a84924d18db37b9315b3302"},"name":"Telegraph Hill","rating":3.5,"review_count":101,"location":{"address1":"289 Dorchester St","address2":"","address3":"","city":"South Boston","zip_code":"02127","country":"US","state":"MA","display_address":["289 Dorchester St","South Boston, MA 02127"]},"num_property_violations":3,"property_violations":{"Improper storage trash: com":1,"Mechanical Execution of Work":1,"Improper storage trash: res":1}}
{"_id":{"$oid":"5a84924d18db37b9315b3303"},"name":"Tasty Burger","rating":3.0,"review_count":142,"location":{"address1":"145 Dartmouth St","address2":"","address3":"","city":"Boston","zip_code":"02116","country":"US","state":"MA","display_address":["145 Dartmouth St","Boston, MA 02116"]},"num_property_violations":1,"property_violations":{"Failure clear sidewalk - snow":1}}
{"_id":{"$oid":"5a84924d18db37b9315b3304"},"name":"Telegraph Hill","rating":3.5,"review_count":101,"location":{"address1":"289 Dorchester St","address2":"","address3":"","city":"South Boston","zip_code":"02127","country":"US","state":"MA","display_address":["289 Dorchester St","South Boston, MA 02127"]},"num_property_violations":3,"property_violations":{"Improper storage trash: com":1,"Mechanical Execution of Work":1,"Improper storage trash: res":1}}
{"_id":{"$oid":"5a84924d18db37b9315b3305"},"name":"Terra","rating":3.5,"review_count":110,"location":{"address1":"800 Boylston St","address2":"","address3":null,"city":"Boston","zip_code":"02199","country":"US","state":"MA","display_address":["800 Boylston St","Boston, MA 02199"]},"num_property_violations":1,"property_violations":{"Failure clear sidewalk - snow:":1}}
{"_id":{"$oid":"5a84924d18db37b9315b3306"},"name":"Terramia Ristorante","rating":4.0,"review_count":253,"location":{"address1":"98 Salem St","address2":"","address3":"","city":"Boston","zip_code":"02113","country":"US","state":"MA","display_address":["98 Salem St","Boston, MA 02113"]},"num_property_violations":15,"property_violations":{"Improper storage trash: res":9,"Improper storage trash: com":3,"Unsafe Structure":1,"Maintenance of Exterior":2}}
{"_id":{"$oid":"5a84924d18db37b9315b3307"},"name":"Thai Dish","rating":3.5,"review_count":111,"location":{"address1":"636 Beacon St","address2":null,"address3":"","city":"Boston","zip_code":"02215","country":"US","state":"MA","display_address":["636 Beacon St","Boston, MA 02215"]},"num_property_violations":1,"property_violations":{"Improper storage trash: com":1}}
{"_id":{"$oid":"5a84924d18db37b9315b3308"},"name":"The Gallery","rating":3.0,"review_count":7,"location":{"address1":"100 Stuart St","address2":"","address3":"W Hotels","city":"Boston","zip_code":"02116","country":"US","state":"MA","display_address":["100 Stuart St","W Hotels","Boston, MA 02116"]},"num_property_violations":4,"property_violations":{"Failure clear sidewalk - snow":1,"Failure to Obtain Permit":1,"Removal snow private property":1,"Removal snow non-res property":1}}
{"_id":{"$oid":"5a84924d18db37b9315b3309"},"name":"Good Life","rating":3.5,"review_count":327,"location":{"address1":"28 Kingston St","address2":"","address3":"","city":"Boston","zip_code":"02111","country":"US","state":"MA","display_address":["28 Kingston St","Boston, MA 02111"]},"num_property_violations":1,"property_violations":{"Improper storage trash: com":1}}
{"_id":{"$oid":"5a84924d18db37b9315b330a"},"name":"The Oceanaire Seafood Room","rating":4.0,"review_count":575,"location":{"address1":"40 Court St","address2":"","address3":"","city":"Boston","zip_code":"02108","country":"US","state":"MA","display_address":["40 Court St","Boston, MA 02108"]},"num_property_violations":2,"property_violations":{"Illegal dumping \u003c 1 cubic yd":1,"Illegal Vending":1}}
{"_id":{"$oid":"5a84924d18db37b9315b330b"},"name":"Q Restaurant","rating":4.0,"review_count":785,"location":{"address1":"660 Washington St","address2":"","address3":"","city":"Boston","zip_code":"02111","country":"US","state":"MA","display_address":["660 Washington St","Boston, MA 02111"]},"num_property_violations":10,"property_violations":{"Improper storage trash: res":3,"Improper storage trash: com":1,"Occupying City prop wo permit":2,"Overfilling of barrel/dumpster":2,"Maint a dumpster wopermit":2}}
{"_id":{"$oid":"5a84924d18db37b9315b330c"},"name":"Upper Crust Pizzeria","rating":3.5,"review_count":337,"location":{"address1":"20 Charles St","address2":"","address3":"","city":"Boston","zip_code":"02114","country":"US","state":"MA","display_address":["20 Charles St","Boston, MA 02114"]},"num_property_violations":2,"property_violations":{"Improper storage trash: com":1,"Overfilling of barrel/dumpster":1}}
{"_id":{"$oid":"5a84924d18db37b9315b330d"},"name":"Upper Crust Pizzeria","rating":3.5,"review_count":337,"location":{"address1":"20 Charles St","address2":"","address3":"","city":"Boston","zip_code":"02114","country":"US","state":"MA","display_address":["20 Charles St","Boston, MA 02114"]},"num_property_violations":2,"property_violations":{"Improper storage trash: com":1,"Overfilling of barrel/dumpster":1}}
{"_id":{"$oid":"5a84924d18db37b9315b330e"},"name":"Top of the Hub","rating":3.5,"review_count":1905,"location":{"address1":"800 Boylston St","address2":"Ste 52","address3":"","city":"Boston","zip_code":"02199","country":"US","state":"MA","display_address":["800 Boylston St","Ste 52","Boston, MA 02199"]},"num_property_violations":1,"property_violations":{"Failure clear sidewalk - snow:":1}}
{"_id":{"$oid":"5a84924d18db37b9315b330f"},"name":"Townsman","rating":4.0,"review_count":259,"location":{"address1":"120 Kingston St","address2":"","address3":"","city":"Boston","zip_code":"02111","country":"US","state":"MA","display_address":["120 Kingston St","Boston, MA 02111"]},"num_property_violations":1,"property_violations":{"Occupying City prop wo permit":1}}
{"_id":{"$oid":"5a84924d18db37b9315b3310"},"name":"Tunnel","rating":3.0,"review_count":66,"location":{"address1":"100 Stuart St","address2":"","address3":"","city":"Boston","zip_code":"02116","country":"US","state":"MA","display_address":["100 Stuart St","Boston, MA 02116"]},"num_property_violations":4,"property_violations":{"Failure clear sidewalk - snow":1,"Failure to Obtain Permit":1,"Removal snow private property":1,"Removal snow non-res property":1}}
{"_id":{"$oid":"5a84924d18db37b9315b3311"},"name":"Uburger","rating":4.0,"review_count":420,"location":{"address1":"636 Beacon St","address2":"","address3":"Kenmore Sq","city":"Boston","zip_code":"02215","country":"US","state":"MA","display_address":["636 Beacon St","Kenmore Sq","Boston, MA 02215"]},"num_property_violations":1,"property_violations":{"Improper storage trash: com":1}}
{"_id":{"$oid":"5a84924d18db37b9315b3312"},"name":"Ula Café","rating":4.0,"review_count":433,"location":{"address1":"284 Amory St","address2":"","address3":"","city":"Jamaica Plain","zip_code":"02130","country":"US","state":"MA","display_address":["284 Amory St","Jamaica Plain, MA 02130"]},"num_property_violations":1,"property_violations":{"Occupying City prop wo permit":1}}
{"_id":{"$oid":"5a84924d18db37b9315b3313"},"name":"Vintage Restaurant and Lounge","rating":3.0,"review_count":126,"location":{"address1":"72 Broad St","address2":null,"address3":"","city":"Boston","zip_code":"02110","country":"US","state":"MA","display_address":["72 Broad St","Boston, MA 02110"]},"num_property_violations":2,"property_violations":{"Improper storage trash: res":1,"Occupying City prop wo permit":1}}
{"_id":{"$oid":"5a84924d18db37b9315b3314"},"name":"wagamama","rating":3.0,"review_count":475,"location":{"address1":"800 Boylston St","address2":"","address3":"","city":"Boston","zip_code":"02199","country":"US","state":"MA","display_address":["800 Boylston St","Boston, MA 02199"]},"num_property_violations":1,"property_violations":{"Failure clear sidewalk - snow:":1}}
{"_id":{"$oid":"5a84924d18db37b9315b3315"},"name":"West Napoli Cafe","rating":4.0,"review_count":37,"location":{"address1":"1946 Centre St","address2":"","address3":"","city":"West Roxbury","zip_code":"02132","country":"US","state":"MA","display_address":["1946 Centre St","West Roxbury, MA 02132"]},"num_property_violations":1,"property_violations":{"Failure to Obtain Permit":1}}
{"_id":{"$oid":"5a84924d18db37b9315b3316"},"name":"Wing's Kitchen","rating":3.5,"review_count":65,"location":{"address1":"23 Hudson St","address2":null,"address3":"","city":"Boston","zip_code":"02111","country":"US","state":"MA","display_address":["23 Hudson St","Boston, MA 02111"]},"num_property_violations":9,"property_violations":{"Improper storage trash: res":3,"Improper storage trash: com":5,"Graffiti on building- 1":1}}
{"_id":{"$oid":"5a84924d18db37b9315b3317"},"name":"Yamato II","rating":3.0,"review_count":260,"location":{"address1":"545 Boylston St","address2":"","address3":"","city":"Boston","zip_code":"02116","country":"US","state":"MA","display_address":["545 Boylston St","Boston, MA 02116"]},"num_property_violations":11,"property_violations":{"Overfilling of barrel/dumpster":6,"Improper storage trash: com":4,"Illegal dumping \u003c 1 cubic yd":1}}
{"_id":{"$oid":"5a84924d18db37b9315b3318"},"name":"Coffee Central","rating":4.0,"review_count":30,"location":{"address1":"55 Fruit St","address2":"","address3":"Massachusetts General Hospital","city":"Boston","zip_code":"02114","country":"US","state":"MA","display_address":["55 Fruit St","Massachusetts General Hospital","Boston, MA 02114"]},"num_property_violations":2,"property_violations":{"Illegal dumping \u003c 1 cubic yd":1,"Improper storage trash: com":1}}
